{
"type": "FeatureCollection",
"name": "合法垂釣港口",
"crs": { "type": "name", "properties": { "name": "urn:ogc:def:crs:OGC:1.3:CRS84" } },
"features": [
{ "type": "Feature", "properties": { "Name": "大武崙漁港", "description": null, "IDX": "7", "KIND": "第二類", "COUNTY": "基隆市", "XPOS": "121.7083", "YPOS": "25.16727" }, "geometry": { "type": "Point", "coordinates": [ 121.7083, 25.16727 ] } },
{ "type": "Feature", "properties": { "Name": "外木山漁港", "description": null, "IDX": "8", "KIND": "第二類", "COUNTY": "基隆市", "XPOS": "121.7337", "YPOS": "25.15926" }, "geometry": { "type": "Point", "coordinates": [ 121.7337, 25.15926 ] } },
{ "type": "Feature", "properties": { "Name": "長潭里漁港", "description": null, "IDX": "9", "KIND": "第二類", "COUNTY": "基隆市", "XPOS": "121.8005", "YPOS": "25.14041" }, "geometry": { "type": "Point", "coordinates": [ 121.8005, 25.14041 ] } },
{ "type": "Feature", "properties": { "Name": "望海巷漁港", "description": null, "IDX": "10", "KIND": "第二類", "COUNTY": "基隆市", "XPOS": "121.8034", "YPOS": "25.1382" }, "geometry": { "type": "Point", "coordinates": [ 121.8034, 25.1382 ] } },
{ "type": "Feature", "properties": { "Name": "八斗子漁港", "description": null, "IDX": "6", "KIND": "第一類", "COUNTY": "基隆市", "XPOS": "121.7902", "YPOS": "25.14733" }, "geometry": { "type": "Point", "coordinates": [ 121.7902, 25.14733 ] } },
{ "type": "Feature", "properties": { "Name": "澳仔漁港", "description": null, "IDX": "13", "KIND": "第二類", "COUNTY": "新北市", "XPOS": "121.9305", "YPOS": "25.05253" }, "geometry": { "type": "Point", "coordinates": [ 121.9305, 25.05253 ] } },
{ "type": "Feature", "properties": { "Name": "福隆漁港", "description": null, "IDX": "12", "KIND": "第二類", "COUNTY": "新北市", "XPOS": "121.95", "YPOS": "25.02127" }, "geometry": { "type": "Point", "coordinates": [ 121.95, 25.02127 ] } },
{ "type": "Feature", "properties": { "Name": "六塊厝漁港", "description": null, "IDX": "17", "KIND": "第二類", "COUNTY": "新北市", "XPOS": "121.4487", "YPOS": "25.24255" }, "geometry": { "type": "Point", "coordinates": [ 121.4487, 25.24255 ] } },
{ "type": "Feature", "properties": { "Name": "水尾漁港", "description": null, "IDX": "3", "KIND": "第二類", "COUNTY": "新北市", "XPOS": "121.6506", "YPOS": "25.22574" }, "geometry": { "type": "Point", "coordinates": [ 121.6506, 25.22574 ] } },
{ "type": "Feature", "properties": { "Name": "和美漁港", "description": null, "IDX": "14", "KIND": "第二類", "COUNTY": "新北市", "XPOS": "121.9154", "YPOS": "25.08004" }, "geometry": { "type": "Point", "coordinates": [ 121.9154, 25.08004 ] } },
{ "type": "Feature", "properties": { "Name": "水湳洞漁港", "description": null, "IDX": "11", "KIND": "第二類", "COUNTY": "新北市", "XPOS": "121.8673", "YPOS": "25.12238" }, "geometry": { "type": "Point", "coordinates": [ 121.8673, 25.12238 ] } },
{ "type": "Feature", "properties": { "Name": "後厝漁港", "description": null, "IDX": "16", "KIND": "第二類", "COUNTY": "新北市", "XPOS": "121.4735", "YPOS": "25.25781" }, "geometry": { "type": "Point", "coordinates": [ 121.4735, 25.25781 ] } },
{ "type": "Feature", "properties": { "Name": "草里漁港", "description": null, "IDX": "15", "KIND": "第二類", "COUNTY": "新北市", "XPOS": "121.6069", "YPOS": "25.28238" }, "geometry": { "type": "Point", "coordinates": [ 121.6069, 25.28238 ] } },
{ "type": "Feature", "properties": { "Name": "深澳漁港", "description": null, "IDX": "4", "KIND": "第二類", "COUNTY": "新北市", "XPOS": "121.8209", "YPOS": "25.13255" }, "geometry": { "type": "Point", "coordinates": [ 121.8209, 25.13255 ] } },
{ "type": "Feature", "properties": { "Name": "淡水第二漁港", "description": null, "IDX": "18", "KIND": "第二類", "COUNTY": "新北市", "XPOS": "121.4082", "YPOS": "25.18291" }, "geometry": { "type": "Point", "coordinates": [ 121.4082, 25.18291 ] } },
{ "type": "Feature", "properties": { "Name": "野柳漁港", "description": null, "IDX": "5", "KIND": "第二類", "COUNTY": "新北市", "XPOS": "121.6883", "YPOS": "25.20602" }, "geometry": { "type": "Point", "coordinates": [ 121.6883, 25.20602 ] } },
{ "type": "Feature", "properties": { "Name": "烏石漁港", "description": null, "IDX": "20", "KIND": "第一類", "COUNTY": "宜蘭縣", "XPOS": "121.8437", "YPOS": "24.86404" }, "geometry": { "type": "Point", "coordinates": [ 121.8437, 24.86404 ] } },
{ "type": "Feature", "properties": { "Name": "彌陀漁港", "description": null, "IDX": "21", "KIND": "第二類", "COUNTY": "高雄市", "XPOS": "120.2322", "YPOS": "22.76189" }, "geometry": { "type": "Point", "coordinates": [ 120.2322, 22.76189 ] } },
{ "type": "Feature", "properties": { "Name": "鳳鼻頭漁港", "description": null, "IDX": "2", "KIND": "第二類", "COUNTY": "高雄市", "XPOS": "120.3565", "YPOS": "22.50832" }, "geometry": { "type": "Point", "coordinates": [ 120.3565, 22.50832 ] } },
{ "type": "Feature", "properties": { "Name": "新竹漁港", "description": null, "IDX": "1", "KIND": "第一類", "COUNTY": "新竹市", "XPOS": "120.9128", "YPOS": "24.85028" }, "geometry": { "type": "Point", "coordinates": [ 120.9128, 24.85028 ] } },
{ "type": "Feature", "properties": { "Name": "南澳漁港", "description": null, "IDX": "19", "KIND": "第二類", "COUNTY": "宜蘭縣", "XPOS": "121.8216", "YPOS": "24.4605" }, "geometry": { "type": "Point", "coordinates": [ 121.8216, 24.4605 ] } },
{ "type": "Feature", "properties": { "Name": "枋寮漁港", "description": null, "IDX": "22", "KIND": "第二類", "COUNTY": "屏東縣", "XPOS": "120.5931", "YPOS": "22.36104" }, "geometry": { "type": "Point", "coordinates": [ 120.5931, 22.36104 ] } },
{ "type": "Feature", "properties": { "Name": "塭豐漁港", "description": null, "IDX": "23", "KIND": "第一類", "COUNTY": "屏東縣", "XPOS": "120.5195", "YPOS": "22.4165" }, "geometry": { "type": "Point", "coordinates": [ 120.5195, 22.4165 ] } },
{ "type": "Feature", "properties": { "Name": "中山漁港", "description": null, "IDX": "24", "KIND": "第一類", "COUNTY": "屏東縣", "XPOS": "120.8925", "YPOS": "22.13824" }, "geometry": { "type": "Point", "coordinates": [ 120.8925, 22.13824 ] } },
{ "type": "Feature", "properties": { "Name": "楓港漁港", "description": null, "IDX": "25", "KIND": "第一類", "COUNTY": "屏東縣", "XPOS": "120.6897", "YPOS": "22.18759" }, "geometry": { "type": "Point", "coordinates": [ 120.6897, 22.18759 ] } },
{ "type": "Feature", "properties": { "Name": "海口漁港", "description": null, "IDX": "26", "KIND": "第一類", "COUNTY": "屏東縣", "XPOS": "120.715", "YPOS": "22.09167" }, "geometry": { "type": "Point", "coordinates": [ 120.715, 22.09167 ] } },
{ "type": "Feature", "properties": { "Name": "旭海漁港", "description": null, "IDX": "27", "KIND": "第二類", "COUNTY": "屏東縣", "XPOS": "120.8926", "YPOS": "22.19827" }, "geometry": { "type": "Point", "coordinates": [ 120.8926, 22.19827 ] } },
{ "type": "Feature", "properties": { "Name": "東港鹽埔漁港", "description": null, "IDX": "28", "KIND": "第一類", "COUNTY": "屏東縣", "XPOS": "120.4322", "YPOS": "22.46914" }, "geometry": { "type": "Point", "coordinates": [ 120.4322, 22.46914 ] } },
{ "type": "Feature", "properties": { "Name": "永安漁港", "description": null, "IDX": "29", "KIND": "第二類", "COUNTY": "桃園市", "XPOS": "121.0124", "YPOS": "24.98892" }, "geometry": { "type": "Point", "coordinates": [ 121.0124, 24.98892 ] } },
{ "type": "Feature", "properties": { "Name": "竹圍漁港", "description": null, "IDX": "30", "KIND": "第二類", "COUNTY": "桃園市", "XPOS": "121.2394", "YPOS": "25.1186" }, "geometry": { "type": "Point", "coordinates": [ 121.2394, 25.1186 ] } },
{ "type": "Feature", "properties": { "Name": "公司寮漁港", "description": null, "IDX": "31", "KIND": "第二類", "COUNTY": "苗栗縣", "XPOS": "120.7575", "YPOS": "24.61358" }, "geometry": { "type": "Point", "coordinates": [ 120.7575, 24.61358 ] } },
{ "type": "Feature", "properties": { "Name": "基隆港商港", "description": null, "IDX": "32", "KIND": "施工碼頭200公尺", "COUNTY": "基隆市", "XPOS": "121.7574", "YPOS": "25.15693" }, "geometry": { "type": "Point", "coordinates": [ 121.7574, 25.15693 ] } },
{ "type": "Feature", "properties": { "Name": "基隆港商港", "description": null, "IDX": "32", "KIND": "東岸防波堤900公尺", "COUNTY": "基隆市", "XPOS": "121.7552", "YPOS": "25.16138" }, "geometry": { "type": "Point", "coordinates": [ 121.7552, 25.16138 ] } },
{ "type": "Feature", "properties": { "Name": "臺北港商港", "description": null, "IDX": "34", "KIND": "北防波堤全段1,268公尺", "COUNTY": "新北市", "XPOS": "121.3633", "YPOS": "25.15714" }, "geometry": { "type": "Point", "coordinates": [ 121.3633, 25.15714 ] } },
{ "type": "Feature", "properties": { "Name": "臺中港商港", "description": null, "IDX": "35", "KIND": "北防波堤2,818公尺*(全段開放)", "COUNTY": "臺中市", "XPOS": "120.4933", "YPOS": "24.29721" }, "geometry": { "type": "Point", "coordinates": [ 120.4933, 24.29721 ] } },
{ "type": "Feature", "properties": { "Name": "臺中港商港", "description": null, "IDX": "35", "KIND": "100號碼頭329公尺", "COUNTY": "臺中市", "XPOS": "120.4844", "YPOS": "24.2227" }, "geometry": { "type": "Point", "coordinates": [ 120.4844, 24.2227 ] } },
{ "type": "Feature", "properties": { "Name": "安平港商港", "description": null, "IDX": "37", "KIND": "南防波堤1,600公尺", "COUNTY": "臺南市", "XPOS": "120.1475", "YPOS": "22.98337" }, "geometry": { "type": "Point", "coordinates": [ 120.1475, 22.98337 ] } },
{ "type": "Feature", "properties": { "Name": "安平港商港", "description": null, "IDX": "37", "KIND": "北防波堤600公尺", "COUNTY": "臺南市", "XPOS": "120.1456", "YPOS": "22.98725" }, "geometry": { "type": "Point", "coordinates": [ 120.1456, 22.98725 ] } },
{ "type": "Feature", "properties": { "Name": "花蓮港商港", "description": null, "IDX": "39", "KIND": "新東防波堤0K+0以南1,837公尺", "COUNTY": "花蓮縣", "XPOS": "121.6319", "YPOS": "23.97595" }, "geometry": { "type": "Point", "coordinates": [ 121.6319, 23.97595 ] } },
{ "type": "Feature", "properties": { "Name": "澎湖港商港", "description": null, "IDX": "40", "KIND": "馬公碼頭開放垂釣區870公尺", "COUNTY": "澎湖縣", "XPOS": "119.5646", "YPOS": "23.56198" }, "geometry": { "type": "Point", "coordinates": [ 119.5646, 23.56198 ] } },
{ "type": "Feature", "properties": { "Name": "澎湖港商港", "description": null, "IDX": "40", "KIND": "龍門尖山碼頭開放垂釣區1,000公尺", "COUNTY": "澎湖縣", "XPOS": "119.6685", "YPOS": "23.55895" }, "geometry": { "type": "Point", "coordinates": [ 119.6685, 23.55895 ] } },
{ "type": "Feature", "properties": { "Name": "高雄港商港", "description": null, "IDX": "42", "KIND": "台電灰塘防波堤400公尺開放垂釣區", "COUNTY": "高雄市", "XPOS": "120.3275", "YPOS": "22.52542" }, "geometry": { "type": "Point", "coordinates": [ 120.3275, 22.52542 ] } },
{ "type": "Feature", "properties": { "Name": "高雄港商港", "description": null, "IDX": "42", "KIND": "旗后山下舊台機造船廠旁護岸145公尺", "COUNTY": "高雄市", "XPOS": "120.2655", "YPOS": "22.61603" }, "geometry": { "type": "Point", "coordinates": [ 120.2655, 22.61603 ] } },
{ "type": "Feature", "properties": { "Name": "布袋港商港", "description": null, "IDX": "44", "KIND": "北防波堤內堤以外西側660公尺", "COUNTY": "嘉義縣", "XPOS": "120.1284", "YPOS": "23.38438" }, "geometry": { "type": "Point", "coordinates": [ 120.1284, 23.38438 ] } },
{ "type": "Feature", "properties": { "Name": "金門港商港", "description": null, "IDX": "45", "KIND": "金門水頭港北防波堤1120公尺", "COUNTY": "金門縣", "XPOS": "118.2924", "YPOS": "24.42461" }, "geometry": { "type": "Point", "coordinates": [ 118.2924, 24.42461 ] } },
{ "type": "Feature", "properties": { "Name": "基隆嶼島礁18處", "description": null, "IDX": "46", "KIND": "觀音座", "COUNTY": "基隆市", "XPOS": "121.7869", "YPOS": "25.19074" }, "geometry": { "type": "Point", "coordinates": [ 121.7869, 25.19074 ] } },
{ "type": "Feature", "properties": { "Name": "基隆嶼島礁18處", "description": null, "IDX": "47", "KIND": "碼頭礁釣場", "COUNTY": "基隆市", "XPOS": "121.7876", "YPOS": "25.19097" }, "geometry": { "type": "Point", "coordinates": [ 121.7876, 25.19097 ] } },
{ "type": "Feature", "properties": { "Name": "基隆嶼島礁18處", "description": null, "IDX": "48", "KIND": "鳥嘴礁釣場", "COUNTY": "基隆市", "XPOS": "121.7879", "YPOS": "25.19113" }, "geometry": { "type": "Point", "coordinates": [ 121.7879, 25.19113 ] } },
{ "type": "Feature", "properties": { "Name": "基隆嶼島礁18處", "description": null, "IDX": "49", "KIND": "東坑釣場", "COUNTY": "基隆市", "XPOS": "121.7887", "YPOS": "25.19234" }, "geometry": { "type": "Point", "coordinates": [ 121.7887, 25.19234 ] } },
{ "type": "Feature", "properties": { "Name": "基隆嶼島礁18處", "description": null, "IDX": "50", "KIND": "內斜礁釣場", "COUNTY": "基隆市", "XPOS": "121.7892", "YPOS": "25.19254" }, "geometry": { "type": "Point", "coordinates": [ 121.7892, 25.19254 ] } },
{ "type": "Feature", "properties": { "Name": "基隆嶼島礁18處", "description": null, "IDX": "51", "KIND": "外斜礁釣場", "COUNTY": "基隆市", "XPOS": "121.7899", "YPOS": "25.19287" }, "geometry": { "type": "Point", "coordinates": [ 121.7899, 25.19287 ] } },
{ "type": "Feature", "properties": { "Name": "基隆嶼島礁18處", "description": null, "IDX": "52", "KIND": "東北坑釣場", "COUNTY": "基隆市", "XPOS": "121.7888", "YPOS": "25.19437" }, "geometry": { "type": "Point", "coordinates": [ 121.7888, 25.19437 ] } },
{ "type": "Feature", "properties": { "Name": "基隆嶼島礁18處", "description": null, "IDX": "53", "KIND": "東北坑外礁", "COUNTY": "基隆市", "XPOS": "121.7893", "YPOS": "25.19467" }, "geometry": { "type": "Point", "coordinates": [ 121.7893, 25.19467 ] } },
{ "type": "Feature", "properties": { "Name": "基隆嶼島礁18處", "description": null, "IDX": "54", "KIND": "雞心礁東面釣場", "COUNTY": "基隆市", "XPOS": "121.7894", "YPOS": "25.19563" }, "geometry": { "type": "Point", "coordinates": [ 121.7894, 25.19563 ] } },
{ "type": "Feature", "properties": { "Name": "基隆嶼島礁18處", "description": null, "IDX": "55", "KIND": "雞心礁內側釣場", "COUNTY": "基隆市", "XPOS": "121.7892", "YPOS": "25.19542" }, "geometry": { "type": "Point", "coordinates": [ 121.7892, 25.19542 ] } },
{ "type": "Feature", "properties": { "Name": "基隆嶼島礁18處", "description": null, "IDX": "56", "KIND": "四角礁釣場", "COUNTY": "基隆市", "XPOS": "121.7889", "YPOS": "25.19514" }, "geometry": { "type": "Point", "coordinates": [ 121.7889, 25.19514 ] } },
{ "type": "Feature", "properties": { "Name": "基隆嶼島礁18處", "description": null, "IDX": "57", "KIND": "峭壁釣場", "COUNTY": "基隆市", "XPOS": "121.7885", "YPOS": "25.19476" }, "geometry": { "type": "Point", "coordinates": [ 121.7885, 25.19476 ] } },
{ "type": "Feature", "properties": { "Name": "基隆嶼島礁18處", "description": null, "IDX": "58", "KIND": "中礁釣場", "COUNTY": "基隆市", "XPOS": "121.7867", "YPOS": "25.19529" }, "geometry": { "type": "Point", "coordinates": [ 121.7867, 25.19529 ] } },
{ "type": "Feature", "properties": { "Name": "基隆嶼島礁18處", "description": null, "IDX": "59", "KIND": "大乞礁釣場", "COUNTY": "基隆市", "XPOS": "121.786", "YPOS": "25.19493" }, "geometry": { "type": "Point", "coordinates": [ 121.786, 25.19493 ] } },
{ "type": "Feature", "properties": { "Name": "基隆嶼島礁18處", "description": null, "IDX": "60", "KIND": "小乞礁北面釣場", "COUNTY": "基隆市", "XPOS": "121.7836", "YPOS": "25.19557" }, "geometry": { "type": "Point", "coordinates": [ 121.7836, 25.19557 ] } },
{ "type": "Feature", "properties": { "Name": "基隆嶼島礁18處", "description": null, "IDX": "61", "KIND": "小乞礁釣場", "COUNTY": "基隆市", "XPOS": "121.7837", "YPOS": "25.19513" }, "geometry": { "type": "Point", "coordinates": [ 121.7837, 25.19513 ] } },
{ "type": "Feature", "properties": { "Name": "基隆嶼島礁18處", "description": null, "IDX": "62", "KIND": "土地公礁釣場", "COUNTY": "基隆市", "XPOS": "121.7829", "YPOS": "25.19253" }, "geometry": { "type": "Point", "coordinates": [ 121.7829, 25.19253 ] } },
{ "type": "Feature", "properties": { "Name": "基隆嶼島礁18處", "description": null, "IDX": "63", "KIND": "燈塔礁釣場", "COUNTY": "基隆市", "XPOS": "121.7847", "YPOS": "25.1901" }, "geometry": { "type": "Point", "coordinates": [ 121.7847, 25.1901 ] } },
{ "type": "Feature", "properties": { "Name": "墾丁國家公園11處", "description": null, "IDX": "64", "KIND": "保力溪河口以南至海生館內(岸巡龜山廳舍)以北之海岸約750公尺", "COUNTY": "屏東縣", "XPOS": "120.7056", "YPOS": "22.05761" }, "geometry": { "type": "Point", "coordinates": [ 120.7056, 22.05761 ] } },
{ "type": "Feature", "properties": { "Name": "墾丁國家公園11處", "description": null, "IDX": "65", "KIND": "後灣港以南之海岸海岸約900公尺", "COUNTY": "屏東縣", "XPOS": "120.6924", "YPOS": "22.03802" }, "geometry": { "type": "Point", "coordinates": [ 120.6924, 22.03802 ] } },
{ "type": "Feature", "properties": { "Name": "墾丁國家公園11處", "description": null, "IDX": "66", "KIND": "山海漁港以南至紅柴漁港以北之海岸約1,400公尺", "COUNTY": "屏東縣", "XPOS": "120.7148", "YPOS": "21.9791" }, "geometry": { "type": "Point", "coordinates": [ 120.7148, 21.9791 ] } },
{ "type": "Feature", "properties": { "Name": "墾丁國家公園11處", "description": null, "IDX": "67", "KIND": "白沙沙灘以北(北勢鼻)之海岸約170公尺", "COUNTY": "屏東縣", "XPOS": "120.7118", "YPOS": "21.93402" }, "geometry": { "type": "Point", "coordinates": [ 120.7118, 21.93402 ] } },
{ "type": "Feature", "properties": { "Name": "墾丁國家公園11處", "description": null, "IDX": "68", "KIND": "下潭仔至雷打石之海岸約450公尺", "COUNTY": "屏東縣", "XPOS": "120.7423", "YPOS": "21.92809" }, "geometry": { "type": "Point", "coordinates": [ 120.7423, 21.92809 ] } },
{ "type": "Feature", "properties": { "Name": "墾丁國家公園11處", "description": null, "IDX": "69", "KIND": "青蛙石南側周圍之海岸約600公尺", "COUNTY": "屏東縣", "XPOS": "120.7991", "YPOS": "21.93776" }, "geometry": { "type": "Point", "coordinates": [ 120.7991, 21.93776 ] } },
{ "type": "Feature", "properties": { "Name": "墾丁國家公園11處", "description": null, "IDX": "70", "KIND": "小灣沙灘以南至船帆石沙灘以北之海岸約1,300公尺", "COUNTY": "屏東縣", "XPOS": "120.8096", "YPOS": "21.93496" }, "geometry": { "type": "Point", "coordinates": [ 120.8096, 21.93496 ] } },
{ "type": "Feature", "properties": { "Name": "墾丁國家公園11處", "description": null, "IDX": "71", "KIND": "鼻頭漁港至蒼海亭之海岸約180公尺", "COUNTY": "屏東縣", "XPOS": "120.8481", "YPOS": "21.90354" }, "geometry": { "type": "Point", "coordinates": [ 120.8481, 21.90354 ] } },
{ "type": "Feature", "properties": { "Name": "墾丁國家公園11處", "description": null, "IDX": "72", "KIND": "最南點西北之海岸約180公尺", "COUNTY": "屏東縣", "XPOS": "120.8569", "YPOS": "21.89707" }, "geometry": { "type": "Point", "coordinates": [ 120.8569, 21.89707 ] } },
{ "type": "Feature", "properties": { "Name": "墾丁國家公園11處", "description": null, "IDX": "73", "KIND": "港口溪河口以南至興海漁港以北之沙灘海岸約800公尺", "COUNTY": "屏東縣", "XPOS": "120.8441", "YPOS": "21.98172" }, "geometry": { "type": "Point", "coordinates": [ 120.8441, 21.98172 ] } },
{ "type": "Feature", "properties": { "Name": "墾丁國家公園11處", "description": null, "IDX": "74", "KIND": "佳樂水風景區停車場以北至軍艦岩以南之海岸約2,200公尺", "COUNTY": "屏東縣", "XPOS": "120.8659", "YPOS": "21.99532" }, "geometry": { "type": "Point", "coordinates": [ 120.8659, 21.99532 ] } },
{ "type": "Feature", "properties": { "Name": "安平漁港", "description": null, "IDX": "75", "KIND": "第一類", "COUNTY": "臺南市", "XPOS": "120.152", "YPOS": "22.96956" }, "geometry": { "type": "Point", "coordinates": [ 120.152, 22.96956 ] } },
{ "type": "Feature", "properties": { "Name": "外埔漁港", "description": null, "IDX": "76", "KIND": "第二類", "COUNTY": "苗栗縣", "XPOS": "120.7707", "YPOS": "24.65026" }, "geometry": { "type": "Point", "coordinates": [ 120.7707, 24.65026 ] } },
{ "type": "Feature", "properties": { "Name": "將軍漁港", "description": null, "IDX": "77", "KIND": "第二類", "COUNTY": "臺南市", "XPOS": "120.0782", "YPOS": "23.20875" }, "geometry": { "type": "Point", "coordinates": [ 120.0782, 23.20875 ] } },
{ "type": "Feature", "properties": { "Name": "中芸漁港", "description": null, "IDX": "78", "KIND": "第二類", "COUNTY": "高雄市", "XPOS": "120.3988", "YPOS": "22.48161" }, "geometry": { "type": "Point", "coordinates": [ 120.3988, 22.48161 ] } },
{ "type": "Feature", "properties": { "Name": "羅厝漁港", "description": null, "IDX": "79", "KIND": "第二類", "COUNTY": "金門縣", "XPOS": "118.2584", "YPOS": "24.42332" }, "geometry": { "type": "Point", "coordinates": [ 118.2584, 24.42332 ] } },
{ "type": "Feature", "properties": { "Name": "新湖漁港", "description": null, "IDX": "80", "KIND": "第二類", "COUNTY": "金門縣", "XPOS": "118.4103", "YPOS": "24.43049" }, "geometry": { "type": "Point", "coordinates": [ 118.4103, 24.43049 ] } },
{ "type": "Feature", "properties": { "Name": "復國墩漁港", "description": null, "IDX": "81", "KIND": "第二類", "COUNTY": "金門縣", "XPOS": "118.4729", "YPOS": "24.44751" }, "geometry": { "type": "Point", "coordinates": [ 118.4729, 24.44751 ] } },
{ "type": "Feature", "properties": { "Name": "高雄港商港", "description": null, "IDX": "42", "KIND": "二港口北堤510公尺", "COUNTY": "高雄市", "XPOS": "120.3027", "YPOS": "22.55355" }, "geometry": { "type": "Point", "coordinates": [ 120.3027, 22.55355 ] } }
]
}
